[
  { "name": "London Heathrow", "slug": "heathrow", "iata": "LHR", "region": "London", "lat": 51.47, "lng": -0.4543 },
  { "name": "London Gatwick", "slug": "gatwick", "iata": "LGW", "region": "London", "lat": 51.1537, "lng": -0.1821 },
  { "name": "Manchester", "slug": "manchester", "iata": "MAN", "region": "North West", "lat": 53.3654, "lng": -2.275 },
  { "name": "London Stansted", "slug": "stansted", "iata": "STN", "region": "London", "lat": 51.886, "lng": 0.2389 },
  { "name": "London Luton", "slug": "luton", "iata": "LTN", "region": "London", "lat": 51.8747, "lng": -0.3683 },
  { "name": "Edinburgh", "slug": "edinburgh", "iata": "EDI", "region": "Scotland", "lat": 55.95, "lng": -3.3725 },
  { "name": "Birmingham", "slug": "birmingham", "iata": "BHX", "region": "West Midlands", "lat": 52.4539, "lng": -1.748 },
  { "name": "Glasgow", "slug": "glasgow", "iata": "GLA", "region": "Scotland", "lat": 55.8719, "lng": -4.4331 },
  { "name": "Bristol", "slug": "bristol", "iata": "BRS", "region": "South West", "lat": 51.3827, "lng": -2.7191 },
  { "name": "Belfast International", "slug": "belfast-international", "iata": "BFS", "region": "Northern Ireland", "lat": 54.6575, "lng": -6.2158 },
  { "name": "Newcastle", "slug": "newcastle", "iata": "NCL", "region": "North East", "lat": 55.0375, "lng": -1.6917 },
  { "name": "Liverpool John Lennon", "slug": "liverpool", "iata": "LPL", "region": "North West", "lat": 53.3336, "lng": -2.8497 },
  { "name": "London City", "slug": "london-city", "iata": "LCY", "region": "London", "lat": 51.5053, "lng": 0.0553 },
  { "name": "Leeds Bradford", "slug": "leeds-bradford", "iata": "LBA", "region": "Yorkshire", "lat": 53.8659, "lng": -1.6606 },
  { "name": "East Midlands", "slug": "east-midlands", "iata": "EMA", "region": "East Midlands", "lat": 52.8311, "lng": -1.3281 },
  { "name": "Aberdeen", "slug": "aberdeen", "iata": "ABZ", "region": "Scotland", "lat": 57.2019, "lng": -2.1978 },
  { "name": "Belfast City", "slug": "belfast-city", "iata": "BHD", "region": "Northern Ireland", "lat": 54.6181, "lng": -5.8725 },
  { "name": "Southampton", "slug": "southampton", "iata": "SOU", "region": "South East", "lat": 50.9503, "lng": -1.3568 },
  { "name": "Cardiff", "slug": "cardiff", "iata": "CWL", "region": "Wales", "lat": 51.3967, "lng": -3.3433 },
  { "name": "Exeter", "slug": "exeter", "iata": "EXT", "region": "South West", "lat": 50.7344, "lng": -3.4139 },
  { "name": "London Southend", "slug": "southend", "iata": "SEN", "region": "East of England", "lat": 51.5714, "lng": 0.6956 },
  { "name": "Bournemouth", "slug": "bournemouth", "iata": "BOH", "region": "South West", "lat": 50.78, "lng": -1.8425 },
  { "name": "Norwich", "slug": "norwich", "iata": "NWI", "region": "East of England", "lat": 52.6758, "lng": 1.2828 },
  { "name": "Inverness", "slug": "inverness", "iata": "INV", "region": "Scotland", "lat": 57.5425, "lng": -4.0475 },
  { "name": "Teesside International", "slug": "teesside", "iata": "MME", "region": "North East", "lat": 54.5092, "lng": -1.4294 },
  { "name": "Glasgow Prestwick", "slug": "prestwick", "iata": "PIK", "region": "Scotland", "lat": 55.5094, "lng": -4.5867 }
]
